level0,level1,level2,level2,code,name,note,latitude,longitude
จ.เชียงราย,แม่จัน,เทศบาลตำบลแม่ไร่,แม่ไร่,6739,รพ.สต.แม่ไร่,รพ.สต.,20.256,99.864
จ.เชียงราย,เมืองเชียงราย,เทศบาลสันทราย,สันทราย,6654,รพ.สต.สันทราย,รพ.สต.,19.855,99.805
จ.เชียงราย,พาน,องค์การบริหารส่วนตําบลสันติสุข,สันติสุข,6708,รพ.สต.สันติสุข,รพ.สต.,19.575,99.765
จ.เชียงราย,แม่สาย,เทศบาลตำบลแม่สาย,แม่สาย,6755,รพ.สต.แม่สาย,รพ.สต.,20.431,99.913
จ.เชียงราย,แม่จัน,องค์การบริหารส่วนตําบลจอมสวรรค์,จอมสวรรค์,6742,รพ.สต.จอมสวรรค์,รพ.สต.,20.17,99.95
จ.เชียงราย,แม่ลาว,องค์การบริหารส่วนตําบลบัวสลี,บัวสลี,6810,รพ.สต.บัวสลี,รพ.สต.,19.804,99.768
จ.เชียงราย,เทิง,เทศบาลตำบลสันทรายงาม,สันทรายงาม,6702,รพ.สต.สันทรายงาม,รพ.สต.,19.717,100.18
จ.เชียงราย,พาน,องค์การบริหารส่วนตําบลดอยงาม,ดอยงาม,6709,รพ.สต.ดอยงาม,รพ.สต.,19.548,99.808
จ.เชียงราย,แม่ลาว,องค์การบริหารส่วนตําบลจอมหมอกแก้ว,จอมหมอกแก้ว,6809,รพ.สต.จอมหมอกแก้ว,รพ.สต.,19.757,99.747
จ.เชียงราย,แม่ลาว,องค์การบริหารส่วนตําบลจอมหมอกแก้ว,จอมหมอกแก้ว,11201,รพ.แม่ลาว,รพ.,19.757,99.747
จ.เชียงราย,ป่าแดด,เทศบาลตำบลศรีโพธิ์เงิน,ศรีโพธิ์เงิน,6727,รพ.สต.ศรีโพธิ์เงิน,รพ.สต.,19.435,99.934
จ.เชียงราย,แม่สาย,เทศบาลตำบลเวียงพางคำ,เวียงพางคำ,6760,รพ.สต.บ้านผาหมี,รพ.สต.,20.409,99.9
จ.เชียงราย,แม่สาย,เทศบาลตำบลเวียงพางคำ,เวียงพางคำ,11194,รพ.แม่สาย,รพ.,20.409,99.9
จ.เชียงราย,พาน,เทศบาลตำบลเมืองพาน,เมืองพาน,6719,รพ.สต.เมืองพาน,รพ.สต.,19.554,99.746
จ.เชียงราย,เทิง,องค์การบริหารส่วนตําบลศรีดอนไชย,ศรีดอนไชย,6703,รพ.สต.ศรีดอนไชย,รพ.สต.,19.609,100.092
จ.เชียงราย,เวียงป่าเป้า,เทศบาลตำบลเวียงกาหลง,เวียงกาหลง,6776,รพ.สต.บ้านทุ่งม่าน,รพ.สต.,19.241,99.525
จ.เชียงราย,เวียงป่าเป้า,เทศบาลตำบลเวียงกาหลง,เวียงกาหลง,6777,รพ.สต.เวียงกาหลง,รพ.สต.,19.241,99.525
จ.เชียงราย,พาน,องค์การบริหารส่วนตําบลหัวง้ม,หัวง้ม,6710,รพ.สต.หัวง้ม,รพ.สต.,19.538,99.771
จ.เชียงราย,แม่จัน,เทศบาลตำบลแม่คำ,แม่คำ,6731,รพ.สต.แม่คำ,รพ.สต.,20.251,99.902
จ.เชียงราย,แม่จัน,เทศบาลตำบลแม่คำ,แม่คำ,6732,รพ.สต.บ้านม่วงคำ,รพ.สต.,20.251,99.902
จ.เชียงราย,แม่จัน,เทศบาลตำบลแม่จัน,แม่จัน,6741,รพ.สต.จันจว้าใต้,รพ.สต.,20.138,99.87
จ.เชียงราย,แม่จัน,เทศบาลตำบลแม่จัน,แม่จัน,11192,รพ.แม่จัน,รพ.,20.138,99.87
จ.เชียงราย,แม่จัน,องค์การบริหารส่วนตําบลศรีค้ำ,ศรีค้ำ,6740,รพ.สต.ศรีค้ำ,รพ.สต.,20.221,99.797
จ.เชียงราย,เทิง,องค์การบริหารส่วนตําบลหนองแรด,หนองแรด,6704,รพ.สต.หนองแรด,รพ.สต.,19.607,100.143
จ.เชียงราย,แม่จัน,เทศบาลตำบลสันทราย,สันทราย,6735,รพ.สต.สันทราย,รพ.สต.,20.171,99.891
จ.เชียงราย,เวียงชัย,เทศบาลตำบลเมืองชุม,เมืองชุม,6675,รพ.สต.บ้านดอนแก้ว,รพ.สต.,19.904,99.974
จ.เชียงราย,เวียงชัย,เทศบาลตำบลเมืองชุม,เมืองชุม,14999,รพ.สต.เมืองชุม,รพ.สต.,19.904,99.974
จ.เชียงราย,ป่าแดด,เทศบาลตำบลสันมะค่า,สันมะค่า,6725,รพ.สต.สันมะค่า,รพ.สต.,19.466,100.048
จ.เชียงราย,พาน,องค์การบริหารส่วนตําบลม่วงคำ,ม่วงคำ,11190,รพ.พาน,รพ.,19.49,99.711
จ.เชียงราย,แม่สาย,องค์การบริหารส่วนตําบลโป่งงาม,โป่งงาม,6761,รพ.สต.บ้านด้าย,รพ.สต.,20.325,99.869
จ.เชียงราย,แม่สาย,องค์การบริหารส่วนตําบลโป่งงาม,โป่งงาม,6762,รพ.สต.โป่งงาม,รพ.สต.,20.325,99.869
จ.เชียงราย,แม่สาย,องค์การบริหารส่วนตําบลโป่งงาม,โป่งงาม,10446,รพ.สต.บ้านผาฮี้,รพ.สต.,20.325,99.869
จ.เชียงราย,แม่สาย,องค์การบริหารส่วนตําบลโป่งงาม,โป่งงาม,23020,รพ.สต.บ้านถ้ำ,รพ.สต.,20.325,99.869
จ.เชียงราย,แม่สาย,องค์การบริหารส่วนตําบลศรีเมืองชุม,ศรีเมืองชุม,6759,รพ.สต.ศรีเมืองชุม,รพ.สต.,20.378,99.957
จ.เชียงราย,พญาเม็งราย,องค์การบริหารส่วนตําบลแม่ต๋ำ,แม่ต๋ำ,6782,รพ.สต.แม่ต๋ำ,รพ.สต.,19.926,100.239
จ.เชียงราย,แม่สาย,องค์การบริหารส่วนตําบลโป่งผา,โป่งผา,6758,รพ.สต.โป่งผา,รพ.สต.,20.37,99.894
จ.เชียงราย,พาน,องค์การบริหารส่วนตําบลแม่เย็น,แม่เย็น,6718,รพ.สต.แม่เย็น,รพ.สต.,19.454,99.732
จ.เชียงราย,แม่สาย,เทศบาลตำบลห้วยไคร้,ห้วยไคร้,6756,รพ.สต.ห้วยไคร้,รพ.สต.,20.286,99.87
จ.เชียงราย,แม่สาย,องค์การบริหารส่วนตําบลเกาะช้าง,เกาะช้าง,6757,รพ.สต.เกาะช้าง,รพ.สต.,20.398,100.01
จ.เชียงราย,เวียงชัย,เทศบาลตำบลเวียงเหนือ,เวียงเหนือ,6672,รพ.สต.เวียงเหนือ,รพ.สต.,19.932,99.94
จ.เชียงราย,พาน,องค์การบริหารส่วนตําบลธารทอง,ธารทอง,6707,รพ.สต.ธารทอง,รพ.สต.,19.71,99.723
จ.เชียงราย,เชียงแสน,เทศบาลตำบลป่าสัก,ป่าสัก,6745,รพ.สต.บ้านแม่คำ,รพ.สต.,20.28,100.003
จ.เชียงราย,เชียงแสน,เทศบาลตำบลป่าสัก,ป่าสัก,6746,รพ.สต.ป่าสัก,รพ.สต.,20.28,100.003
จ.เชียงราย,แม่ลาว,เทศบาลตำบลป่าก่อดำ,ป่าก่อดำ,6811,รพ.สต.บ้านโป่งมอญ,รพ.สต.,19.794,99.715
จ.เชียงราย,แม่ลาว,เทศบาลตำบลป่าก่อดำ,ป่าก่อดำ,6812,รพ.สต.ป่าก่อดำ,รพ.สต.,19.794,99.715
จ.เชียงราย,เมืองเชียงราย,เทศบาลตำบลท่าสาย,ท่าสาย,6667,รพ.สต.ท่าสาย,รพ.สต.,19.837,99.851
จ.เชียงราย,เวียงชัย,เทศบาลตำบลเวียงชัย,เวียงชัย,6669,รพ.สต.บ้านด้ายหนองหล่ม,รพ.สต.,19.866,99.912
จ.เชียงราย,เวียงชัย,เทศบาลตำบลเวียงชัย,เวียงชัย,15003,รพ.สต.เวียงชัย,รพ.สต.,19.866,99.912
จ.เชียงราย,เวียงชัย,เทศบาลตำบลเวียงชัย,เวียงชัย,15012,รพ.สมเด็จพระญาณสังวร,รพ.,19.866,99.912
จ.เชียงราย,พาน,องค์การบริหารส่วนตําบลเจริญเมือง,เจริญเมือง,6711,รพ.สต.เจริญเมือง,รพ.สต.,19.616,99.746
จ.เชียงราย,พาน,องค์การบริหารส่วนตําบลเจริญเมือง,เจริญเมือง,6712,รพ.สต.บ้านป่าบง,รพ.สต.,19.616,99.746
จ.เชียงราย,เชียงของ,เทศบาลตำบลบุญเรือง,บุญเรือง,6681,รพ.สต.บุญเรือง,รพ.สต.,19.989,100.347
จ.เชียงราย,แม่จัน,เทศบาลตำบลป่าซาง,ป่าซาง,6733,รพ.สต.บ้านพระราชทาน,รพ.สต.,20.181,99.846
จ.เชียงราย,แม่จัน,เทศบาลตำบลป่าซาง,ป่าซาง,6734,รพ.สต.บ้านใหม่พัฒนา,รพ.สต.,20.181,99.846
จ.เชียงราย,เมืองเชียงราย,เทศบาลตำบลรอบเวียง,รอบเวียง,6644,รพ.สต.บ้านหัวฝายรอบเวียง,รพ.สต.,19.898,99.803
จ.เชียงราย,เมืองเชียงราย,เทศบาลตำบลรอบเวียง,รอบเวียง,6646,รพ.สต.รอบเวียง,รพ.สต.,19.898,99.803
จ.เชียงราย,เมืองเชียงราย,เทศบาลตำบลรอบเวียง,รอบเวียง,6649,รพ.สต.บ้านนางแล,รพ.สต.,19.898,99.803
จ.เชียงราย,เมืองเชียงราย,เทศบาลตำบลรอบเวียง,รอบเวียง,6655,รพ.สต.แม่กรณ์,รพ.สต.,19.898,99.803
จ.เชียงราย,เมืองเชียงราย,เทศบาลรอบเวียง,รอบเวียง,14877,รพ.สต.บ้านป่ายางมนต์,รพ.สต.,19.898,99.803
จ.เชียงราย,เมืองเชียงราย,เทศบาลตำบลรอบเวียง,รอบเวียง,10674,รพ.เชียงรายประชานุเคราะห์,รพ.,19.898,99.803
จ.เชียงราย,แม่ลาว,องค์การบริหารส่วนตําบลโป่งแพร่,โป่งแพร่,6813,รพ.สต.โป่งแพร่,รพ.สต.,19.812,99.653
จ.เชียงราย,แม่ลาว,องค์การบริหารส่วนตําบลโป่งแพร่,โป่งแพร่,6814,รพ.สต.บ้านห้วยส้านพลับพลา,รพ.สต.,19.812,99.653
จ.เชียงราย,เชียงแสน,เทศบาลตำบลโยนก,โยนก,6754,รพ.สต.โยนก,รพ.สต.,20.238,100.062
จ.เชียงราย,ป่าแดด,เทศบาลตำบลโรงช้าง,โรงช้าง,6726,รพ.สต.โรงช้าง,รพ.สต.,19.494,99.947
จ.เชียงราย,พาน,องค์การบริหารส่วนตําบลสันกลาง,สันกลาง,6717,รพ.สต.สันกลาง,รพ.สต.,19.607,99.684
จ.เชียงราย,พาน,องค์การบริหารส่วนตําบลสันกลาง,สันกลาง,11780,รพ.สต.บ้านแม่คาวหลวง,รพ.สต.,19.607,99.684
จ.เชียงราย,ขุนตาล,เทศบาลตำบลป่าตาล,ป่าตาล,6796,รพ.สต.ป่าตาล,รพ.สต.,19.847,100.272
จ.เชียงราย,ขุนตาล,เทศบาลตำบลป่าตาล,ป่าตาล,6797,รพ.สต.บ้านป่าข่า,รพ.สต.,19.847,100.272
จ.เชียงราย,แม่ลาว,เทศบาลตำบลดงมะดะ,ดงมะดะ,6806,รพ.สต.ดงมะดะ,รพ.สต.,19.734,99.67
จ.เชียงราย,แม่ลาว,เทศบาลตำบลดงมะดะ,ดงมะดะ,6807,รพ.สต.บ้านห้วยส้านยาว,รพ.สต.,19.734,99.67
จ.เชียงราย,แม่ลาว,เทศบาลตำบลดงมะดะ,ดงมะดะ,6808,รพ.สต.บ้านท่าสันกลาง,รพ.สต.,19.734,99.67
จ.เชียงราย,แม่จัน,เทศบาลตำบลจันจว้า,จันจว้า,6729,รพ.สต.บ้านแม่คำน้ำลัด,รพ.สต.,20.239,99.982
จ.เชียงราย,แม่จัน,เทศบาลตำบลจันจว้า,จันจว้า,6730,รพ.สต.จันจว้า,รพ.สต.,20.239,99.982
จ.เชียงราย,เชียงแสน,เทศบาลตำบลเวียงเชียงแสน,เวียงเชียงแสน,6743,รพ.สต.บ้านสบรวก,รพ.สต.,20.305,100.081
จ.เชียงราย,เชียงแสน,เทศบาลตำบลเวียงเชียงแสน,เวียงเชียงแสน,6744,รพ.สต.เวียง,รพ.สต.,20.305,100.081
จ.เชียงราย,เชียงแสน,เทศบาลตำบลเวียงเชียงแสน,เวียงเชียงแสน,11193,รพ.เชียงแสน,รพ.,20.305,100.081
จ.เชียงราย,แม่สรวย,องค์การบริหารส่วนตําบลแม่พริก,แม่พริก,11195,รพ.แม่สรวย,รพ.,19.63,99.524
จ.เชียงราย,ป่าแดด,เทศบาลตำบลป่าแดด,ป่าแดด,6722,รพ.สต.ป่าแดด,รพ.สต.,19.507,100.015
จ.เชียงราย,ป่าแดด,เทศบาลตำบลป่าแดด,ป่าแดด,11191,รพ.ป่าแดด,รพ.,19.507,100.015
จ.เชียงราย,เทิง,เทศบาลตำบลเชียงเคี่ยน,เชียงเคี่ยน,6695,รพ.สต.เชียงเคี่ยน,รพ.สต.,19.625,99.99
จ.เชียงราย,เมืองเชียงราย,องค์การบริหารส่วนตําบลริมกก,ริมกก,6661,รพ.สต.บ้านสันตาลเหลือง,รพ.สต.,19.937,99.887
จ.เชียงราย,เมืองเชียงราย,องค์การบริหารส่วนตําบลริมกก,ริมกก,6662,รพ.สต.ริมกก,รพ.สต.,19.937,99.887
จ.เชียงราย,เชียงแสน,องค์การบริหารส่วนตําบลศรีดอนมูล,ศรีดอนมูล,6749,รพ.สต.บ้านสันสลี,รพ.สต.,20.336,100.002
จ.เชียงราย,เชียงแสน,องค์การบริหารส่วนตําบลศรีดอนมูล,ศรีดอนมูล,6750,รพ.สต.บ้านเวียงแก้ว,รพ.สต.,20.336,100.002
จ.เชียงราย,เชียงแสน,องค์การบริหารส่วนตําบลศรีดอนมูล,ศรีดอนมูล,6751,รพ.สต.ศรีดอนมูล,รพ.สต.,20.336,100.002
จ.เชียงราย,เชียงแสน,องค์การบริหารส่วนตําบลศรีดอนมูล,ศรีดอนมูล,10445,รพ.สต.บ้านดอยสะโง้,รพ.สต.,20.336,100.002
จ.เชียงราย,เวียงแก่น,เทศบาลตำบลท่าข้าม,ท่าข้าม,6793,รพ.สต.ท่าข้าม,รพ.สต.,20.042,100.52
จ.เชียงราย,เวียงแก่น,เทศบาลตำบลหล่ายงาว,หล่ายงาว,6792,รพ.สต.หล่ายงาว,รพ.สต.,20.117,100.48
จ.เชียงราย,พาน,เทศบาลตำบลสันมะเค็ด,สันมะเค็ด,6705,รพ.สต.สันมะเค็ด,รพ.สต.,19.609,99.864
จ.เชียงราย,พาน,เทศบาลตำบลสันมะเค็ด,สันมะเค็ด,14890,รพ.สต.บ้านใหม่ท่าเรือ,รพ.สต.,19.609,99.864
จ.เชียงราย,เทิง,เทศบาลตำบลหงาว,หงาว,6700,รพ.สต.หงาว,รพ.สต.,19.678,100.283
จ.เชียงราย,เทิง,เทศบาลตำบลหงาว,หงาว,6701,รพ.สต.บ้านดอนแยง,รพ.สต.,19.678,100.283
จ.เชียงราย,ขุนตาล,องค์การบริหารส่วนตําบลต้า,ต้า,6794,รพ.สต.บ้านพระเนตร,รพ.สต.,19.804,100.233
จ.เชียงราย,ขุนตาล,องค์การบริหารส่วนตําบลต้า,ต้า,6795,รพ.สต.ต้า,รพ.สต.,19.804,100.233
จ.เชียงราย,ขุนตาล,องค์การบริหารส่วนตําบลต้า,ต้า,11199,รพ.ขุนตาล,รพ.,19.804,100.233
จ.เชียงราย,ดอยหลวง,องค์การบริหารส่วนตําบลหนองป่าก่อ,หนองป่าก่อ,6824,รพ.สต.หนองป่าก่อ,รพ.สต.,20.181,100.124
จ.เชียงราย,พาน,องค์การบริหารส่วนตําบลเวียงห้าว,เวียงห้าว,6721,รพ.สต.เวียงห้าว,รพ.สต.,19.524,99.88
จ.เชียงราย,เวียงแก่น,เทศบาลตำบลม่วงยาย,ม่วงยาย,6788,รพ.สต.ม่วงยาย,รพ.สต.,20.108,100.539
จ.เชียงราย,เวียงแก่น,เทศบาลตำบลม่วงยาย,ม่วงยาย,10458,รพ.สต.บ้านห้วยลึก,รพ.สต.,20.108,100.539
จ.เชียงราย,เวียงแก่น,เทศบาลตำบลม่วงยาย,ม่วงยาย,11198,รพ.เวียงแก่น,รพ.,20.108,100.539
จ.เชียงราย,ป่าแดด,เทศบาลตำบลป่าแงะ,ป่าแงะ,6723,รพ.สต.บ้านหล่ายร้อง,รพ.สต.,19.579,99.933
จ.เชียงราย,ป่าแดด,เทศบาลตำบลป่าแงะ,ป่าแงะ,6724,รพ.สต.ป่าแงะ,รพ.สต.,19.579,99.933
จ.เชียงราย,ดอยหลวง,องค์การบริหารส่วนตําบลปงน้อย,ปงน้อย,6821,รพ.สต.ปงน้อย,รพ.สต.,20.104,100.068
จ.เชียงราย,ดอยหลวง,องค์การบริหารส่วนตําบลปงน้อย,ปงน้อย,28823,รพ.ดอยหลวง,รพ.,20.104,100.068
จ.เชียงราย,เวียงป่าเป้า,องค์การบริหารส่วนตําบลบ้านโป่ง,บ้านโป่ง,6774,รพ.สต.บ้านโป่ง,รพ.สต.,19.302,99.459
จ.เชียงราย,เวียงป่าเป้า,องค์การบริหารส่วนตําบลบ้านโป่ง,บ้านโป่ง,10456,รพ.สต.บ้านป่าตึง,รพ.สต.,19.302,99.459
จ.เชียงราย,เวียงเชียงรุ้ง,องค์การบริหารส่วนตําบลดงมหาวัน,ดงมหาวัน,6818,รพ.สต.ดงมหาวัน,รพ.สต.,20.041,100.006
จ.เชียงราย,เวียงเชียงรุ้ง,องค์การบริหารส่วนตําบลดงมหาวัน,ดงมหาวัน,23021,รพ.สต.บ้านดงมหาวัน,รพ.สต.,20.041,100.006
จ.เชียงราย,เมืองเชียงราย,องค์การบริหารส่วนตําบลแม่กรณ์,แม่กรณ์,6656,รพ.สต.บ้านปางริมกรณ์,รพ.สต.,19.862,99.698
จ.เชียงราย,เทิง,เทศบาลตำบลบ้านปล้อง,ปล้อง,6692,รพ.สต.ปล้อง,รพ.สต.,19.658,100.062
จ.เชียงราย,เมืองเชียงราย,องค์การบริหารส่วนตําบลดอยฮาง,ดอยฮาง,6668,รพ.สต.ดอยฮาง,รพ.สต.,19.931,99.713
จ.เชียงราย,เชียงของ,เทศบาลตำบลครึ่ง,ครึ่ง,6679,รพ.สต.ครึ่ง,รพ.สต.,20.058,100.402
จ.เชียงราย,เชียงของ,เทศบาลตำบลครึ่ง,ครึ่ง,6680,รพ.สต.ม่วงชุม,รพ.สต.,20.058,100.402
จ.เชียงราย,เชียงของ,องค์การบริหารส่วนตําบลริมโขง,ริมโขง,6688,รพ.สต.บ้านหาดบ้าย,รพ.สต.,20.361,100.313
จ.เชียงราย,เชียงของ,องค์การบริหารส่วนตําบลริมโขง,ริมโขง,6689,รพ.สต.บ้านเมืองกาญจน์,รพ.สต.,20.361,100.313
จ.เชียงราย,เชียงของ,องค์การบริหารส่วนตําบลริมโขง,ริมโขง,10436,รพ.สต.บ้านสองพี่น้อง,รพ.สต.,20.361,100.313
จ.เชียงราย,พาน,องค์การบริหารส่วนตําบลทานตะวัน,ทานตะวัน,6720,รพ.สต.ทานตะวัน,รพ.สต.,19.47,99.832
จ.เชียงราย,พาน,องค์การบริหารส่วนตําบลทานตะวัน,ทานตะวัน,14020,รพ.สต.บ้านร่องคต,รพ.สต.,19.47,99.832
จ.เชียงราย,เมืองเชียงราย,เทศบาลตำบลป่าอ้อดอนชัย,ป่าอ้อดอนชัย,6665,รพ.สต.ป่าอ้อดอนชัย,รพ.สต.,19.768,99.819
จ.เชียงราย,เมืองเชียงราย,เทศบาลตำบลป่าอ้อดอนชัย,ป่าอ้อดอนชัย,6666,รพ.สต.บ้านดงเทพนิมิตร,รพ.สต.,19.768,99.819
จ.เชียงราย,เทิง,องค์การบริหารส่วนตําบลแม่ลอย,แม่ลอย,6693,รพ.สต.แม่ลอย,รพ.สต.,19.573,100.063
จ.เชียงราย,เทิง,องค์การบริหารส่วนตําบลแม่ลอย,แม่ลอย,6694,รพ.สต.บ้านเกี๋ยง,รพ.สต.,19.573,100.063
จ.เชียงราย,เทิง,องค์การบริหารส่วนตําบลแม่ลอย,แม่ลอย,6699,รพ.สต.บ้านรักแผ่นดิน,รพ.สต.,19.573,100.063
จ.เชียงราย,เวียงเชียงรุ้ง,องค์การบริหารส่วนตําบลป่าซาง,ป่าซาง,6819,รพ.สต.บ้านป่าซางเหนือ,รพ.สต.,20.048,100.12
จ.เชียงราย,เวียงเชียงรุ้ง,องค์การบริหารส่วนตําบลป่าซาง,ป่าซาง,6820,รพ.สต.ป่าซาง,รพ.สต.,20.048,100.12
จ.เชียงราย,พาน,องค์การบริหารส่วนตําบลแม่อ้อ,แม่อ้อ,6706,รพ.สต.แม่อ้อ,รพ.สต.,19.672,99.821
จ.เชียงราย,เทิง,เทศบาลตำบลงิ้ว,งิ้ว,6690,รพ.สต.บ้านตุ้มเหนือ,รพ.สต.,19.697,100.096
จ.เชียงราย,เทิง,เทศบาลตำบลงิ้ว,งิ้ว,6691,รพ.สต.งิ้ว,รพ.สต.,19.697,100.096
จ.เชียงราย,พญาเม็งราย,องค์การบริหารส่วนตําบลตาดควัน,ตาดควัน,6787,รพ.สต.ตาดควัน,รพ.สต.,19.991,100.184
จ.เชียงราย,พาน,องค์การบริหารส่วนตําบลทรายขาว,ทรายขาว,6715,รพ.สต.บ้านร่องธาร,รพ.สต.,19.663,99.733
จ.เชียงราย,พาน,องค์การบริหารส่วนตําบลทรายขาว,ทรายขาว,6716,รพ.สต.ทรายขาว,รพ.สต.,19.663,99.733
จ.เชียงราย,เวียงชัย,เทศบาลตำบลดอนศิลา,ดอนศิลา,6673,รพ.สต.บ้านช่องลม,รพ.สต.,19.805,100.005
จ.เชียงราย,เวียงชัย,เทศบาลตำบลดอนศิลา,ดอนศิลา,6674,รพ.สต.ดอนศิลา,รพ.สต.,19.805,100.005
จ.เชียงราย,แม่สรวย,เทศบาลตำบลเจดีย์หลวง,เจดีย์หลวง,6772,รพ.สต.เจดีย์หลวง,รพ.สต.,19.569,99.546
จ.เชียงราย,เชียงของ,เทศบาลตำบลสถาน,สถาน,6676,รพ.สต.สถาน,รพ.สต.,20.202,100.364
จ.เชียงราย,เชียงของ,เทศบาลตำบลสถาน,สถาน,6677,รพ.สต.บ้านน้ำม้า,รพ.สต.,20.202,100.364
จ.เชียงราย,เชียงของ,เทศบาลตำบลสถาน,สถาน,6678,รพ.สต.บ้านทุ่งอ่าง,รพ.สต.,20.202,100.364
จ.เชียงราย,เชียงของ,เทศบาลตำบลสถาน,สถาน,23983,รพ.สต.บ้านทุ่งงิ้ว,รพ.สต.,20.202,100.364
จ.เชียงราย,เมืองเชียงราย,เทศบาลตำบลนางแล,นางแล,6650,รพ.สต.บ้านท่าสุด,รพ.สต.,20.048,99.876
จ.เชียงราย,เมืองเชียงราย,เทศบาลตำบลนางแล,นางแล,6651,รพ.สต.แม่ข้าวต้ม,รพ.สต.,20.048,99.876
จ.เชียงราย,แม่ฟ้าหลวง,องค์การบริหารส่วนตําบลแม่สลองนอก,แม่สลองนอก,6803,รพ.สต.บ้านสันติคีรี,รพ.สต.,20.141,99.654
จ.เชียงราย,แม่ฟ้าหลวง,องค์การบริหารส่วนตําบลแม่สลองนอก,แม่สลองนอก,10477,รพ.สต.บ้านธาตุ,รพ.สต.,20.141,99.654
จ.เชียงราย,เมืองเชียงราย,เทศบาลตำบลบ้านดู่,บ้านดู่,6647,รพ.สต.บ้านดู่,รพ.สต.,19.971,99.847
จ.เชียงราย,เมืองเชียงราย,เทศบาลตำบลบ้านดู่,บ้านดู่,6648,รพ.สต.บ้านโป่งพระบาท,รพ.สต.,19.971,99.847
จ.เชียงราย,พญาเม็งราย,เทศบาลตำบลเม็งราย,เม็งราย,6785,รพ.สต.เม็งราย,รพ.สต.,19.861,100.182
จ.เชียงราย,พญาเม็งราย,เทศบาลตำบลเม็งราย,เม็งราย,6786,รพ.สต.บ้านศรีสะอาด,รพ.สต.,19.861,100.182
จ.เชียงราย,เมืองเชียงราย,องค์การบริหารส่วนตําบลแม่ข้าวต้ม,แม่ข้าวต้ม,6652,รพ.สต.บ้านโล๊ะป่าห้า,รพ.สต.,20.021,99.922
จ.เชียงราย,เวียงเชียงรุ้ง,องค์การบริหารส่วนตําบลทุ่งก่อ,ทุ่งก่อ,6815,รพ.สต.ทุ่งก่อ,รพ.สต.,19.984,100.049
จ.เชียงราย,เวียงเชียงรุ้ง,องค์การบริหารส่วนตําบลทุ่งก่อ,ทุ่งก่อ,6816,รพ.สต.บ้านร่องบัวทอง,รพ.สต.,19.984,100.049
จ.เชียงราย,เวียงเชียงรุ้ง,องค์การบริหารส่วนตําบลทุ่งก่อ,ทุ่งก่อ,11202,รพ.เวียงเชียงรุ้ง,รพ.,19.984,100.049
จ.เชียงราย,แม่ฟ้าหลวง,องค์การบริหารส่วนตําบลแม่ฟ้าหลวง,แม่ฟ้าหลวง,6804,รพ.สต.บ้านสามัคคีใหม่,รพ.สต.,20.288,99.783
จ.เชียงราย,แม่ฟ้าหลวง,องค์การบริหารส่วนตําบลแม่ฟ้าหลวง,แม่ฟ้าหลวง,10482,รพ.สต.บ้านป่ายาง,รพ.สต.,20.288,99.783
จ.เชียงราย,แม่ฟ้าหลวง,องค์การบริหารส่วนตําบลแม่ฟ้าหลวง,แม่ฟ้าหลวง,15000,รพ.สต.บ้านห้วยน้ำขุ่น,รพ.สต.,20.288,99.783
จ.เชียงราย,เชียงของ,เทศบาลตำบลเวียงเชียงของ,เวียงเชียงของ,11454,รพ.สมเด็จพระยุพราชเชียงของ,รพ.,20.266,100.369
จ.เชียงราย,พญาเม็งราย,องค์การบริหารส่วนตําบลแม่เปา,แม่เปา,6781,รพ.สต.แม่เปา,รพ.สต.,19.902,100.118
จ.เชียงราย,พญาเม็งราย,องค์การบริหารส่วนตําบลแม่เปา,แม่เปา,14021,รพ.สต.บ้านขุนห้วยแม่เปา,รพ.สต.,19.902,100.118
จ.เชียงราย,พญาเม็งราย,องค์การบริหารส่วนตําบลแม่เปา,แม่เปา,11197,รพ.พญาเม็งราย,รพ.,19.902,100.118
จ.เชียงราย,เชียงแสน,องค์การบริหารส่วนตําบลแม่เงิน,แม่เงิน,6752,รพ.สต.แม่เงิน,รพ.สต.,20.298,100.262
จ.เชียงราย,เชียงแสน,องค์การบริหารส่วนตําบลแม่เงิน,แม่เงิน,6753,รพ.สต.บ้านไร่,รพ.สต.,20.298,100.262
จ.เชียงราย,เวียงชัย,องค์การบริหารส่วนตําบลผางาม,ผางาม,6670,รพ.สต.ผางาม,รพ.สต.,19.882,100.046
จ.เชียงราย,เวียงชัย,องค์การบริหารส่วนตําบลผางาม,ผางาม,6671,รพ.สต.บ้านดงมะตึ๋น,รพ.สต.,19.882,100.046
จ.เชียงราย,พญาเม็งราย,เทศบาลตำบลไม้ยา,ไม้ยา,6783,รพ.สต.ไม้ยา,รพ.สต.,19.769,100.107
จ.เชียงราย,พญาเม็งราย,เทศบาลตำบลไม้ยา,ไม้ยา,6784,รพ.สต.บ้านห้วยก้าง,รพ.สต.,19.769,100.107
จ.เชียงราย,เทิง,เทศบาลตำบลเวียง,เวียง,14019,รพ.สต.บ้านร่องแช่,รพ.สต.,19.692,100.213
จ.เชียงราย,เทิง,เทศบาลตำบลเวียง,เวียง,11189,รพ.เทิง,รพ.,19.692,100.213
จ.เชียงราย,เชียงแสน,เทศบาลตำบลบ้านแซว,บ้านแซว,6747,รพ.สต.แซว,รพ.สต.,20.212,100.265
จ.เชียงราย,เชียงแสน,เทศบาลตำบลบ้านแซว,บ้านแซว,6748,รพ.สต.บ้านแม่แอบ,รพ.สต.,20.212,100.265
จ.เชียงราย,เชียงของ,เทศบาลตำบลศรีดอนชัย,ศรีดอนชัย,6685,รพ.สต.บ้านเขียะ,รพ.สต.,20.15,100.324
จ.เชียงราย,เชียงของ,เทศบาลตำบลศรีดอนชัย,ศรีดอนชัย,6686,รพ.สต.บ้านดงหลวง,รพ.สต.,20.15,100.324
จ.เชียงราย,เชียงของ,เทศบาลตำบลศรีดอนชัย,ศรีดอนชัย,6687,รพ.สต.ศรีดอนชัย,รพ.สต.,20.15,100.324
จ.เชียงราย,ขุนตาล,องค์การบริหารส่วนตําบลยางฮอม,ยางฮอม,6798,รพ.สต.ยางฮอม,รพ.สต.,19.924,100.306
จ.เชียงราย,ขุนตาล,องค์การบริหารส่วนตําบลยางฮอม,ยางฮอม,6799,รพ.สต.บ้านน้ำแพร่ใต้,รพ.สต.,19.924,100.306
จ.เชียงราย,เมืองเชียงราย,เทศบาลตำบลดอยลาน,ดอยลาน,6663,รพ.สต.ดอยลาน,รพ.สต.,19.682,99.945
จ.เชียงราย,เมืองเชียงราย,เทศบาลตำบลดอยลาน,ดอยลาน,6664,รพ.สต.บ้านโล๊ะป่าตุ้ม,รพ.สต.,19.682,99.945
จ.เชียงราย,เวียงป่าเป้า,องค์การบริหารส่วนตําบลแม่เจดีย์,แม่เจดีย์,6778,รพ.สต.แม่เจดีย์,รพ.สต.,19.164,99.367
จ.เชียงราย,เวียงป่าเป้า,องค์การบริหารส่วนตําบลแม่เจดีย์,แม่เจดีย์,6779,รพ.สต.บ้านปางมะกาด,รพ.สต.,19.164,99.367
จ.เชียงราย,แม่สรวย,องค์การบริหารส่วนตําบลศรีถ้อย,ศรีถ้อย,6766,รพ.สต.ศรีถ้อย,รพ.สต.,19.677,99.317
จ.เชียงราย,แม่สรวย,เทศบาลตำบลแม่สรวย,แม่สรวย,6763,รพ.สต.แม่สรวย,รพ.สต.,19.676,99.56
จ.เชียงราย,แม่สรวย,เทศบาลตำบลแม่สรวย,แม่สรวย,6764,รพ.สต.บ้านโป่งฟูเฟือง,รพ.สต.,19.676,99.56
จ.เชียงราย,ดอยหลวง,องค์การบริหารส่วนตําบลโชคชัย,โชคชัย,6822,รพ.สต.บ้านดอย,รพ.สต.,20.134,100.193
จ.เชียงราย,ดอยหลวง,องค์การบริหารส่วนตําบลโชคชัย,โชคชัย,6823,รพ.สต.บ้านแม่บง,รพ.สต.,20.134,100.193
จ.เชียงราย,แม่จัน,องค์การบริหารส่วนตําบลป่าตึง,ป่าตึง,6737,รพ.สต.ป่าตึง,รพ.สต.,20.134,99.77
จ.เชียงราย,แม่จัน,องค์การบริหารส่วนตําบลป่าตึง,ป่าตึง,6738,รพ.สต.บ้านห้วยมะหินฝน,รพ.สต.,20.134,99.77
จ.เชียงราย,แม่จัน,องค์การบริหารส่วนตําบลป่าตึง,ป่าตึง,10439,รพ.สต.บ้านเล่าฝู,รพ.สต.,20.134,99.77
จ.เชียงราย,แม่จัน,องค์การบริหารส่วนตําบลป่าตึง,ป่าตึง,10441,รพ.สต.บ้านสันติสุข,รพ.สต.,20.134,99.77
จ.เชียงราย,เวียงป่าเป้า,เทศบาลตำบลป่างิ้ว,ป่างิ้ว,6775,รพ.สต.ป่างิ้ว,รพ.สต.,19.252,99.441
จ.เชียงราย,เมืองเชียงราย,เทศบาลตำบลห้วยสัก,ห้วยสัก,6658,รพ.สต.ห้วยสัก,รพ.สต.,19.756,99.872
จ.เชียงราย,เมืองเชียงราย,เทศบาลตำบลห้วยสัก,ห้วยสัก,6659,รพ.สต.บ้านร่องปลาขาว,รพ.สต.,19.756,99.872
จ.เชียงราย,เมืองเชียงราย,เทศบาลตำบลห้วยสัก,ห้วยสัก,6660,รพ.สต.บ้านร่องเบ้อ,รพ.สต.,19.756,99.872
จ.เชียงราย,แม่ฟ้าหลวง,องค์การบริหารส่วนตําบลเทอดไทย,เทอดไทย,6800,รพ.สต.บ้านปางมะหัน,รพ.สต.,20.306,99.603
จ.เชียงราย,แม่ฟ้าหลวง,องค์การบริหารส่วนตําบลเทอดไทย,เทอดไทย,6801,รพ.สต.บ้านพญาไพร,รพ.สต.,20.306,99.603
จ.เชียงราย,แม่ฟ้าหลวง,องค์การบริหารส่วนตําบลเทอดไทย,เทอดไทย,10462,รพ.สต.บ้านเทอดไทย,รพ.สต.,20.306,99.603
จ.เชียงราย,เชียงของ,เทศบาลตำบลห้วยซ้อห้วยซ้อ,ห้วยซ้อ,6682,รพ.สต.บ้านซ้อเหนือ,รพ.สต.,20.061,100.284
จ.เชียงราย,เชียงของ,เทศบาลตำบลห้วยซ้อห้วยซ้อ,ห้วยซ้อ,6683,รพ.สต.ห้วยซ้อ,รพ.สต.,20.061,100.284
จ.เชียงราย,เชียงของ,เทศบาลตำบลห้วยซ้อห้วยซ้อ,ห้วยซ้อ,6684,รพ.สต.บ้านใหม่ดอนแก้ว,รพ.สต.,20.061,100.284
จ.เชียงราย,เชียงของ,เทศบาลตำบลห้วยซ้อห้วยซ้อ,ห้วยซ้อ,15004,รพ.สต.บ้านศรีวิไล,รพ.สต.,20.061,100.284
จ.เชียงราย,พาน,องค์การบริหารส่วนตําบลป่าหุ่ง,ป่าหุ่ง,6713,รพ.สต.ป่าหุ่ง,รพ.สต.,19.495,99.648
จ.เชียงราย,พาน,องค์การบริหารส่วนตําบลป่าหุ่ง,ป่าหุ่ง,6714,รพ.สต.บ้านงิ้วเฒ่า,รพ.สต.,19.495,99.648
จ.เชียงราย,แม่สรวย,องค์การบริหารส่วนตําบลป่าแดด,ป่าแดด,6765,รพ.สต.ป่าแดด,รพ.สต.,19.715,99.427
จ.เชียงราย,เวียงป่าเป้า,เทศบาลตำบลเวียง,เวียง,10455,รพ.สต.บ้านแม่ปูนล่าง,รพ.สต.,19.358,99.422
จ.เชียงราย,เวียงป่าเป้า,องค์การบริหารส่วนตําบลเวียง,เวียง,11196,รพ.เวียงป่าเป้า,รพ.,19.358,99.422
จ.เชียงราย,เทิง,องค์การบริหารส่วนตําบลตับเต่า,ตับเต่า,6696,รพ.สต.ตับเต่า,รพ.สต.,19.787,100.355
จ.เชียงราย,เทิง,องค์การบริหารส่วนตําบลตับเต่า,ตับเต่า,6697,รพ.สต.บ้านปางค่า,รพ.สต.,19.787,100.355
จ.เชียงราย,เทิง,องค์การบริหารส่วนตําบลตับเต่า,ตับเต่า,6698,รพ.สต.บ้านร่มโพธิ์ไทย,รพ.สต.,19.787,100.355
จ.เชียงราย,เวียงป่าเป้า,องค์การบริหารส่วนตําบลแม่เจดีย์ใหม่,แม่เจดีย์ใหม่,6780,รพ.สต.แม่เจดีย์ใหม่,รพ.สต.,19.098,99.451
จ.เชียงราย,แม่ฟ้าหลวง,องค์การบริหารส่วนตําบลแม่สลองใน,แม่สลองใน,6802,รพ.สต.บ้านอาโย๊ะ,รพ.สต.,20.194,99.706
จ.เชียงราย,แม่ฟ้าหลวง,องค์การบริหารส่วนตําบลแม่สลองใน,แม่สลองใน,10474,รพ.สต.บ้านห้วยมุ,รพ.สต.,20.194,99.706
จ.เชียงราย,แม่ฟ้าหลวง,องค์การบริหารส่วนตําบลแม่สลองใน,แม่สลองใน,14023,รพ.สต.บ้านสามแยก,รพ.สต.,20.194,99.706
จ.เชียงราย,แม่ฟ้าหลวง,องค์การบริหารส่วนตําบลแม่สลองใน,แม่สลองใน,15001,รพ.สต.บ้านเล่าลิ่ว,รพ.สต.,20.194,99.706
จ.เชียงราย,แม่ฟ้าหลวง,องค์การบริหารส่วนตําบลแม่สลองใน,แม่สลองใน,11200,รพ.แม่ฟ้าหลวง,รพ.,20.194,99.706
จ.เชียงราย,เวียงแก่น,องค์การบริหารส่วนตําบลปอ,ปอ,6789,รพ.สต.ปอ,รพ.สต.,19.94,100.449
จ.เชียงราย,เวียงแก่น,องค์การบริหารส่วนตําบลปอ,ปอ,6790,รพ.สต.บ้านร่มฟ้าทอง,รพ.สต.,19.94,100.449
จ.เชียงราย,เวียงแก่น,องค์การบริหารส่วนตําบลปอ,ปอ,6791,รพ.สต.บ้านผาตั้ง,รพ.สต.,19.94,100.449
จ.เชียงราย,เวียงแก่น,องค์การบริหารส่วนตําบลปอ,ปอ,10460,รพ.สต.บ้านผาแล,รพ.สต.,19.94,100.449
จ.เชียงราย,เวียงแก่น,องค์การบริหารส่วนตําบลปอ,ปอ,10461,รพ.สต.บ้านห้วยหาน,รพ.สต.,19.94,100.449
จ.เชียงราย,แม่สรวย,องค์การบริหารส่วนตําบลท่าก๊อ,ท่าก๊อ,6767,รพ.สต.บ้านห้วยน้ำขุ่น,รพ.สต.,19.504,99.528
จ.เชียงราย,แม่สรวย,องค์การบริหารส่วนตําบลท่าก๊อ,ท่าก๊อ,6768,รพ.สต.ท่าก๊อ,รพ.สต.,19.504,99.528
จ.เชียงราย,เมืองเชียงราย,เทศบาลแม่ยาว,แม่ยาว,6653,รพ.สต.แม่ยาว,รพ.สต.,19.991,99.729
จ.เชียงราย,เมืองเชียงราย,เทศบาลแม่ยาว,แม่ยาว,10425,รพ.สต.บ้านห้วยแม่ซ้าย,รพ.สต.,19.991,99.729
จ.เชียงราย,เมืองเชียงราย,เทศบาลแม่ยาว,แม่ยาว,10426,รพ.สต.พนาสวรรค์,รพ.สต.,19.991,99.729
จ.เชียงราย,เมืองเชียงราย,เทศบาลแม่ยาว,แม่ยาว,14018,รพ.สต.บ้านรวมมิตร,รพ.สต.,19.991,99.729
จ.เชียงราย,เมืองเชียงราย,องค์การบริหารส่วนตําบลห้วยชมภู,ห้วยชมภู,6657,รพ.สต.ห้วยชมภู,รพ.สต.,20.015,99.506
จ.เชียงราย,เมืองเชียงราย,องค์การบริหารส่วนตําบลห้วยชมภู,ห้วยชมภู,10432,รพ.สต.บ้านปางขอน,รพ.สต.,20.015,99.506
จ.เชียงราย,เมืองเชียงราย,องค์การบริหารส่วนตําบลห้วยชมภู,ห้วยชมภู,24663,รพ.สต.บ้านจะคือ,รพ.สต.,20.015,99.506
จ.เชียงราย,เวียงป่าเป้า,องค์การบริหารส่วนตําบลสันสลี,สันสลี,6773,รพ.สต.สันสลี,รพ.สต.,19.419,99.514
จ.เชียงราย,แม่สรวย,องค์การบริหารส่วนตําบลวาวี,วาวี,6769,รพ.สต.บ้านวาวี,รพ.สต.,19.848,99.497
จ.เชียงราย,แม่สรวย,องค์การบริหารส่วนตําบลวาวี,วาวี,6770,รพ.สต.บ้านดอยช้าง,รพ.สต.,19.848,99.497
จ.เชียงราย,แม่สรวย,องค์การบริหารส่วนตําบลวาวี,วาวี,6771,รพ.สต.บ้านห้วยไคร้,รพ.สต.,19.848,99.497
จ.เชียงราย,แม่สรวย,องค์การบริหารส่วนตําบลวาวี,วาวี,10452,รพ.สต.บ้านทุ่งพร้าว,รพ.สต.,19.848,99.497
